{
  "type": "FeatureCollection",
  "features": [
    {
      "type": "Feature",
      "geometry": {
        "type": "Point",
        "coordinates": [
          29.224951,
          40.896837
        ]
      },
      "properties": {
        "osm_id": 266753132,
        "osm_type": "node",
        "name": "Aytemiz",
        "brand": "Aytemiz",
        "operator": "Shell",
        "addr_street": "D100 Bulvarı",
        "addr_district": "Pendik",
        "opening_hours": ""
      }
    },
    {
      "type": "Feature",
      "geometry": {
        "type": "Point",
        "coordinates": [
          28.979786,
          41.02608
        ]
      },
      "properties": {
        "osm_id": 269367213,
        "osm_type": "node",
        "name": "Opet",
        "brand": "Opet",
        "operator": "Alpet",
        "addr_street": "",
        "addr_district": "",
        "opening_hours": ""
      }
    },
    {
      "type": "Feature",
      "geometry": {
        "type": "Point",
        "coordinates": [
          29.01744,
          41.028838
        ]
      },
      "properties": {
        "osm_id": 278335431,
        "osm_type": "node",
        "name": "Petrol Ofisi",
        "brand": "Petrol Ofisi",
        "operator": "",
        "addr_street": "",
        "addr_district": "",
        "opening_hours": "Mo-Su,PH 00:00-00:00"
      }
    },
    {
      "type": "Feature",
      "geometry": {
        "type": "Point",
        "coordinates": [
          29.059922,
          41.114194
        ]
      },
      "properties": {
        "osm_id": 288789439,
        "osm_type": "node",
        "name": "Petrol Ofisi",
        "brand": "Petrol Ofisi",
        "operator": "",
        "addr_street": "",
        "addr_district": "",
        "opening_hours": ""
      }
    },
    {
      "type": "Feature",
      "geometry": {
        "type": "Point",
        "coordinates": [
          28.800738,
          41.00019
        ]
      },
      "properties": {
        "osm_id": 446288239,
        "osm_type": "node",
        "name": "Class Petrol",
        "brand": "Class Petrol",
        "operator": "",
        "addr_street": "",
        "addr_district": "",
        "opening_hours": ""
      }
    },
    {
      "type": "Feature",
      "geometry": {
        "type": "Point",
        "coordinates": [
          29.154934,
          40.998993
        ]
      },
      "properties": {
        "osm_id": 552869782,
        "osm_type": "node",
        "name": "Shell",
        "brand": "Shell",
        "operator": "",
        "addr_street": "",
        "addr_district": "",
        "opening_hours": ""
      }
    },
    {
      "type": "Feature",
      "geometry": {
        "type": "Point",
        "coordinates": [
          28.999294,
          41.055094
        ]
      },
      "properties": {
        "osm_id": 568011021,
        "osm_type": "node",
        "name": "Opet",
        "brand": "Opet",
        "operator": "Artek Petrol",
        "addr_street": "",
        "addr_district": "",
        "opening_hours": ""
      }
    },
    {
      "type": "Feature",
      "geometry": {
        "type": "Point",
        "coordinates": [
          29.030791,
          41.005037
        ]
      },
      "properties": {
        "osm_id": 772439779,
        "osm_type": "node",
        "name": "Shell Baban Petrol",
        "brand": "Shell",
        "operator": "",
        "addr_street": "",
        "addr_district": "",
        "opening_hours": ""
      }
    },
    {
      "type": "Feature",
      "geometry": {
        "type": "Point",
        "coordinates": [
          28.997701,
          41.05594
        ]
      },
      "properties": {
        "osm_id": 932363710,
        "osm_type": "node",
        "name": "Shell",
        "brand": "Shell",
        "operator": "",
        "addr_street": "",
        "addr_district": "",
        "opening_hours": ""
      }
    },
    {
      "type": "Feature",
      "geometry": {
        "type": "Point",
        "coordinates": [
          29.087031,
          40.987644
        ]
      },
      "properties": {
        "osm_id": 1670461592,
        "osm_type": "node",
        "name": "Total",
        "brand": "TotalEnergies",
        "operator": "",
        "addr_street": "",
        "addr_district": "",
        "opening_hours": ""
      }
    },
    {
      "type": "Feature",
      "geometry": {
        "type": "Point",
        "coordinates": [
          29.017752,
          41.087724
        ]
      },
      "properties": {
        "osm_id": 1672420097,
        "osm_type": "node",
        "name": "Shell",
        "brand": "Shell",
        "operator": "",
        "addr_street": "",
        "addr_district": "",
        "opening_hours": ""
      }
    },
    {
      "type": "Feature",
      "geometry": {
        "type": "Point",
        "coordinates": [
          28.684117,
          41.004273
        ]
      },
      "properties": {
        "osm_id": 1695103519,
        "osm_type": "node",
        "name": "Total",
        "brand": "TotalEnergies",
        "operator": "",
        "addr_street": "",
        "addr_district": "",
        "opening_hours": ""
      }
    },
    {
      "type": "Feature",
      "geometry": {
        "type": "Point",
        "coordinates": [
          29.123549,
          40.978326
        ]
      },
      "properties": {
        "osm_id": 1713488174,
        "osm_type": "node",
        "name": "Opet",
        "brand": "Opet",
        "operator": "",
        "addr_street": "",
        "addr_district": "",
        "opening_hours": ""
      }
    },
    {
      "type": "Feature",
      "geometry": {
        "type": "Point",
        "coordinates": [
          29.091908,
          40.983505
        ]
      },
      "properties": {
        "osm_id": 1755203245,
        "osm_type": "node",
        "name": "Total",
        "brand": "TotalEnergies",
        "operator": "",
        "addr_street": "",
        "addr_district": "",
        "opening_hours": ""
      }
    },
    {
      "type": "Feature",
      "geometry": {
        "type": "Point",
        "coordinates": [
          28.491645,
          41.2275
        ]
      },
      "properties": {
        "osm_id": 1830235496,
        "osm_type": "node",
        "name": "",
        "brand": "",
        "operator": "",
        "addr_street": "",
        "addr_district": "",
        "opening_hours": ""
      }
    },
    {
      "type": "Feature",
      "geometry": {
        "type": "Point",
        "coordinates": [
          29.240335,
          40.881515
        ]
      },
      "properties": {
        "osm_id": 1905650685,
        "osm_type": "node",
        "name": "Opet",
        "brand": "Opet",
        "operator": "",
        "addr_street": "",
        "addr_district": "",
        "opening_hours": ""
      }
    },
    {
      "type": "Feature",
      "geometry": {
        "type": "Point",
        "coordinates": [
          29.232876,
          40.875677
        ]
      },
      "properties": {
        "osm_id": 1905900747,
        "osm_type": "node",
        "name": "Shell",
        "brand": "Shell",
        "operator": "",
        "addr_street": "",
        "addr_district": "",
        "opening_hours": ""
      }
    },
    {
      "type": "Feature",
      "geometry": {
        "type": "Point",
        "coordinates": [
          29.369215,
          40.898828
        ]
      },
      "properties": {
        "osm_id": 1907466158,
        "osm_type": "node",
        "name": "Türkiye Petrolleri",
        "brand": "Türkiye Petrolleri",
        "operator": "",
        "addr_street": "Demokrasi Caddesi",
        "addr_district": "Tuzla",
        "opening_hours": ""
      }
    },
    {
      "type": "Feature",
      "geometry": {
        "type": "Point",
        "coordinates": [
          29.360971,
          40.908584
        ]
      },
      "properties": {
        "osm_id": 1907466259,
        "osm_type": "node",
        "name": "Türkiye Petrolleri",
        "brand": "Türkiye Petrolleri",
        "operator": "",
        "addr_street": "",
        "addr_district": "",
        "opening_hours": ""
      }
    },
    {
      "type": "Feature",
      "geometry": {
        "type": "Point",
        "coordinates": [
          29.07683,
          41.04929
        ]
      },
      "properties": {
        "osm_id": 1920258400,
        "osm_type": "node",
        "name": "Petrol Ofisi",
        "brand": "Petrol Ofisi",
        "operator": "",
        "addr_street": "",
        "addr_district": "",
        "opening_hours": ""
      }
    },
    {
      "type": "Feature",
      "geometry": {
        "type": "Point",
        "coordinates": [
          29.102627,
          40.967617
        ]
      },
      "properties": {
        "osm_id": 2257504633,
        "osm_type": "node",
        "name": "Aytemiz",
        "brand": "Aytemiz",
        "operator": "",
        "addr_street": "",
        "addr_district": "",
        "opening_hours": ""
      }
    },
    {
      "type": "Feature",
      "geometry": {
        "type": "Point",
        "coordinates": [
          29.103319,
          40.966423
        ]
      },
      "properties": {
        "osm_id": 2257505250,
        "osm_type": "node",
        "name": "BP",
        "brand": "BP",
        "operator": "",
        "addr_street": "",
        "addr_district": "",
        "opening_hours": ""
      }
    },
    {
      "type": "Feature",
      "geometry": {
        "type": "Point",
        "coordinates": [
          29.104784,
          40.966139
        ]
      },
      "properties": {
        "osm_id": 2257506320,
        "osm_type": "node",
        "name": "Total",
        "brand": "TotalEnergies",
        "operator": "",
        "addr_street": "",
        "addr_district": "",
        "opening_hours": ""
      }
    },
    {
      "type": "Feature",
      "geometry": {
        "type": "Point",
        "coordinates": [
          29.155673,
          41.037081
        ]
      },
      "properties": {
        "osm_id": 2264750239,
        "osm_type": "node",
        "name": "Shell",
        "brand": "Shell",
        "operator": "",
        "addr_street": "",
        "addr_district": "",
        "opening_hours": ""
      }
    },
    {
      "type": "Feature",
      "geometry": {
        "type": "Point",
        "coordinates": [
          28.62522,
          40.996105
        ]
      },
      "properties": {
        "osm_id": 2277832475,
        "osm_type": "node",
        "name": "Alpet Gürpınar",
        "brand": "Alpet",
        "operator": "Alpet",
        "addr_street": "",
        "addr_district": "",
        "opening_hours": ""
      }
    },
    {
      "type": "Feature",
      "geometry": {
        "type": "Point",
        "coordinates": [
          29.323905,
          40.835841
        ]
      },
      "properties": {
        "osm_id": 2363493667,
        "osm_type": "node",
        "name": "",
        "brand": "",
        "operator": "",
        "addr_street": "",
        "addr_district": "",
        "opening_hours": ""
      }
    },
    {
      "type": "Feature",
      "geometry": {
        "type": "Point",
        "coordinates": [
          28.465628,
          41.135112
        ]
      },
      "properties": {
        "osm_id": 2392806044,
        "osm_type": "node",
        "name": "",
        "brand": "",
        "operator": "",
        "addr_street": "",
        "addr_district": "",
        "opening_hours": ""
      }
    },
    {
      "type": "Feature",
      "geometry": {
        "type": "Point",
        "coordinates": [
          28.454553,
          41.157965
        ]
      },
      "properties": {
        "osm_id": 2392806726,
        "osm_type": "node",
        "name": "",
        "brand": "",
        "operator": "",
        "addr_street": "",
        "addr_district": "",
        "opening_hours": ""
      }
    },
    {
      "type": "Feature",
      "geometry": {
        "type": "Point",
        "coordinates": [
          28.454022,
          41.158016
        ]
      },
      "properties": {
        "osm_id": 2392806728,
        "osm_type": "node",
        "name": "",
        "brand": "",
        "operator": "",
        "addr_street": "",
        "addr_district": "",
        "opening_hours": ""
      }
    },
    {
      "type": "Feature",
      "geometry": {
        "type": "Point",
        "coordinates": [
          29.074591,
          41.015641
        ]
      },
      "properties": {
        "osm_id": 2392986716,
        "osm_type": "node",
        "name": "Opet",
        "brand": "Opet",
        "operator": "",
        "addr_street": "",
        "addr_district": "",
        "opening_hours": ""
      }
    },
    {
      "type": "Feature",
      "geometry": {
        "type": "Point",
        "coordinates": [
          29.07609,
          41.016763
        ]
      },
      "properties": {
        "osm_id": 2392986717,
        "osm_type": "node",
        "name": "Shell",
        "brand": "Shell",
        "operator": "",
        "addr_street": "",
        "addr_district": "",
        "opening_hours": "24/7"
      }
    },
    {
      "type": "Feature",
      "geometry": {
        "type": "Point",
        "coordinates": [
          28.832275,
          41.041378
        ]
      },
      "properties": {
        "osm_id": 2429198871,
        "osm_type": "node",
        "name": "Total",
        "brand": "TotalEnergies",
        "operator": "",
        "addr_street": "",
        "addr_district": "",
        "opening_hours": ""
      }
    },
    {
      "type": "Feature",
      "geometry": {
        "type": "Point",
        "coordinates": [
          29.239911,
          40.886852
        ]
      },
      "properties": {
        "osm_id": 2610629148,
        "osm_type": "node",
        "name": "Shell",
        "brand": "Shell",
        "operator": "",
        "addr_street": "",
        "addr_district": "",
        "opening_hours": ""
      }
    },
    {
      "type": "Feature",
      "geometry": {
        "type": "Point",
        "coordinates": [
          28.796068,
          40.987931
        ]
      },
      "properties": {
        "osm_id": 2716711598,
        "osm_type": "node",
        "name": "Shell Şenlikköy",
        "brand": "Shell",
        "operator": "",
        "addr_street": "",
        "addr_district": "",
        "opening_hours": ""
      }
    },
    {
      "type": "Feature",
      "geometry": {
        "type": "Point",
        "coordinates": [
          27.996901,
          41.094893
        ]
      },
      "properties": {
        "osm_id": 2861685236,
        "osm_type": "node",
        "name": "Shell",
        "brand": "Shell",
        "operator": "",
        "addr_street": "",
        "addr_district": "",
        "opening_hours": ""
      }
    },
    {
      "type": "Feature",
      "geometry": {
        "type": "Point",
        "coordinates": [
          27.999746,
          41.095708
        ]
      },
      "properties": {
        "osm_id": 2861685291,
        "osm_type": "node",
        "name": "",
        "brand": "",
        "operator": "",
        "addr_street": "",
        "addr_district": "",
        "opening_hours": ""
      }
    },
    {
      "type": "Feature",
      "geometry": {
        "type": "Point",
        "coordinates": [
          28.713573,
          40.99944
        ]
      },
      "properties": {
        "osm_id": 2928531148,
        "osm_type": "node",
        "name": "Opet",
        "brand": "Opet",
        "operator": "",
        "addr_street": "",
        "addr_district": "",
        "opening_hours": ""
      }
    },
    {
      "type": "Feature",
      "geometry": {
        "type": "Point",
        "coordinates": [
          29.083573,
          40.97084
        ]
      },
      "properties": {
        "osm_id": 2999419474,
        "osm_type": "node",
        "name": "Shell",
        "brand": "Shell",
        "operator": "",
        "addr_street": "",
        "addr_district": "",
        "opening_hours": ""
      }
    },
    {
      "type": "Feature",
      "geometry": {
        "type": "Point",
        "coordinates": [
          29.343803,
          41.088072
        ]
      },
      "properties": {
        "osm_id": 3095087044,
        "osm_type": "node",
        "name": "",
        "brand": "",
        "operator": "",
        "addr_street": "",
        "addr_district": "",
        "opening_hours": ""
      }
    },
    {
      "type": "Feature",
      "geometry": {
        "type": "Point",
        "coordinates": [
          28.881698,
          41.008025
        ]
      },
      "properties": {
        "osm_id": 3130909268,
        "osm_type": "node",
        "name": "Opet",
        "brand": "Opet",
        "operator": "",
        "addr_street": "",
        "addr_district": "",
        "opening_hours": ""
      }
    },
    {
      "type": "Feature",
      "geometry": {
        "type": "Point",
        "coordinates": [
          28.6652,
          40.989712
        ]
      },
      "properties": {
        "osm_id": 3170739257,
        "osm_type": "node",
        "name": "Shell - Karma Grup",
        "brand": "Shell",
        "operator": "",
        "addr_street": "",
        "addr_district": "",
        "opening_hours": "Mo-Su 00:00-12:00"
      }
    },
    {
      "type": "Feature",
      "geometry": {
        "type": "Point",
        "coordinates": [
          29.097585,
          41.094727
        ]
      },
      "properties": {
        "osm_id": 3474488522,
        "osm_type": "node",
        "name": "BP",
        "brand": "BP",
        "operator": "",
        "addr_street": "",
        "addr_district": "",
        "opening_hours": ""
      }
    },
    {
      "type": "Feature",
      "geometry": {
        "type": "Point",
        "coordinates": [
          29.070825,
          41.079965
        ]
      },
      "properties": {
        "osm_id": 3474488524,
        "osm_type": "node",
        "name": "Shell",
        "brand": "Shell",
        "operator": "",
        "addr_street": "",
        "addr_district": "",
        "opening_hours": ""
      }
    },
    {
      "type": "Feature",
      "geometry": {
        "type": "Point",
        "coordinates": [
          29.077044,
          41.081143
        ]
      },
      "properties": {
        "osm_id": 3474488526,
        "osm_type": "node",
        "name": "",
        "brand": "",
        "operator": "",
        "addr_street": "",
        "addr_district": "",
        "opening_hours": ""
      }
    },
    {
      "type": "Feature",
      "geometry": {
        "type": "Point",
        "coordinates": [
          28.978354,
          41.044678
        ]
      },
      "properties": {
        "osm_id": 3728846486,
        "osm_type": "node",
        "name": "Kurtuluş Total",
        "brand": "",
        "operator": "",
        "addr_street": "",
        "addr_district": "",
        "opening_hours": "24/7"
      }
    },
    {
      "type": "Feature",
      "geometry": {
        "type": "Point",
        "coordinates": [
          29.023466,
          41.117542
        ]
      },
      "properties": {
        "osm_id": 3790969409,
        "osm_type": "node",
        "name": "Opet",
        "brand": "Opet",
        "operator": "",
        "addr_street": "",
        "addr_district": "",
        "opening_hours": ""
      }
    },
    {
      "type": "Feature",
      "geometry": {
        "type": "Point",
        "coordinates": [
          29.14107,
          40.937381
        ]
      },
      "properties": {
        "osm_id": 3955643614,
        "osm_type": "node",
        "name": "Shell",
        "brand": "Shell",
        "operator": "",
        "addr_street": "",
        "addr_district": "",
        "opening_hours": ""
      }
    },
    {
      "type": "Feature",
      "geometry": {
        "type": "Point",
        "coordinates": [
          28.688489,
          41.060183
        ]
      },
      "properties": {
        "osm_id": 3996188487,
        "osm_type": "node",
        "name": "BP",
        "brand": "BP",
        "operator": "",
        "addr_street": "",
        "addr_district": "",
        "opening_hours": ""
      }
    },
    {
      "type": "Feature",
      "geometry": {
        "type": "Point",
        "coordinates": [
          28.6881,
          41.060044
        ]
      },
      "properties": {
        "osm_id": 3996189675,
        "osm_type": "node",
        "name": "BP",
        "brand": "BP",
        "operator": "",
        "addr_street": "",
        "addr_district": "",
        "opening_hours": ""
      }
    },
    {
      "type": "Feature",
      "geometry": {
        "type": "Point",
        "coordinates": [
          29.023723,
          41.050182
        ]
      },
      "properties": {
        "osm_id": 4165097565,
        "osm_type": "node",
        "name": "Best House rental of apartment",
        "brand": "Best",
        "operator": "",
        "addr_street": "",
        "addr_district": "",
        "opening_hours": ""
      }
    },
    {
      "type": "Feature",
      "geometry": {
        "type": "Point",
        "coordinates": [
          28.950876,
          41.062944
        ]
      },
      "properties": {
        "osm_id": 4255747089,
        "osm_type": "node",
        "name": "Aytemiz",
        "brand": "Aytemiz",
        "operator": "",
        "addr_street": "",
        "addr_district": "",
        "opening_hours": ""
      }
    },
    {
      "type": "Feature",
      "geometry": {
        "type": "Point",
        "coordinates": [
          28.794082,
          41.080085
        ]
      },
      "properties": {
        "osm_id": 4303169790,
        "osm_type": "node",
        "name": "Türkiye Petrolleri",
        "brand": "",
        "operator": "",
        "addr_street": "",
        "addr_district": "",
        "opening_hours": ""
      }
    },
    {
      "type": "Feature",
      "geometry": {
        "type": "Point",
        "coordinates": [
          29.355099,
          40.893878
        ]
      },
      "properties": {
        "osm_id": 4309080389,
        "osm_type": "node",
        "name": "Petrol Ofisi",
        "brand": "Petrol Ofisi",
        "operator": "Petropark",
        "addr_street": "demokrasi caddesi",
        "addr_district": "",
        "opening_hours": "24/7"
      }
    },
    {
      "type": "Feature",
      "geometry": {
        "type": "Point",
        "coordinates": [
          29.29013,
          41.101313
        ]
      },
      "properties": {
        "osm_id": 4371188639,
        "osm_type": "node",
        "name": "Petrol Ofisi",
        "brand": "Petrol Ofisi",
        "operator": "",
        "addr_street": "",
        "addr_district": "",
        "opening_hours": ""
      }
    },
    {
      "type": "Feature",
      "geometry": {
        "type": "Point",
        "coordinates": [
          29.287845,
          41.092065
        ]
      },
      "properties": {
        "osm_id": 4371188640,
        "osm_type": "node",
        "name": "Shell",
        "brand": "Shell",
        "operator": "",
        "addr_street": "",
        "addr_district": "",
        "opening_hours": ""
      }
    },
    {
      "type": "Feature",
      "geometry": {
        "type": "Point",
        "coordinates": [
          29.201665,
          41.008576
        ]
      },
      "properties": {
        "osm_id": 4416266553,
        "osm_type": "node",
        "name": "Petrol Ofisi",
        "brand": "Petrol Ofisi",
        "operator": "",
        "addr_street": "",
        "addr_district": "",
        "opening_hours": ""
      }
    },
    {
      "type": "Feature",
      "geometry": {
        "type": "Point",
        "coordinates": [
          28.975818,
          41.033725
        ]
      },
      "properties": {
        "osm_id": 4419028247,
        "osm_type": "node",
        "name": "occidental pees hotel Istanbul",
        "brand": "Occidental",
        "operator": "Room Mate",
        "addr_street": "Meşrutiyet Caddesi",
        "addr_district": "",
        "opening_hours": ""
      }
    },
    {
      "type": "Feature",
      "geometry": {
        "type": "Point",
        "coordinates": [
          29.255346,
          40.881148
        ]
      },
      "properties": {
        "osm_id": 4442145256,
        "osm_type": "node",
        "name": "Opet",
        "brand": "Opet",
        "operator": "",
        "addr_street": "",
        "addr_district": "",
        "opening_hours": ""
      }
    },
    {
      "type": "Feature",
      "geometry": {
        "type": "Point",
        "coordinates": [
          28.537457,
          41.007995
        ]
      },
      "properties": {
        "osm_id": 4527983519,
        "osm_type": "node",
        "name": "Shell-Arpet Petrol",
        "brand": "Shell",
        "operator": "",
        "addr_street": "",
        "addr_district": "",
        "opening_hours": ""
      }
    },
    {
      "type": "Feature",
      "geometry": {
        "type": "Point",
        "coordinates": [
          29.181183,
          40.889285
        ]
      },
      "properties": {
        "osm_id": 4580488790,
        "osm_type": "node",
        "name": "Shell",
        "brand": "Shell",
        "operator": "",
        "addr_street": "",
        "addr_district": "",
        "opening_hours": ""
      }
    },
    {
      "type": "Feature",
      "geometry": {
        "type": "Point",
        "coordinates": [
          29.282842,
          40.9612
        ]
      },
      "properties": {
        "osm_id": 4699018047,
        "osm_type": "node",
        "name": "Opet Sultanbeyli",
        "brand": "Opet",
        "operator": "Opet Petrolcülük A.Ş.",
        "addr_street": "Demokrasi Caddesi",
        "addr_district": "Sultanbeyli",
        "opening_hours": ""
      }
    },
    {
      "type": "Feature",
      "geometry": {
        "type": "Point",
        "coordinates": [
          29.295164,
          40.909371
        ]
      },
      "properties": {
        "osm_id": 4699018050,
        "osm_type": "node",
        "name": "Opet Pendik",
        "brand": "Opet",
        "operator": "Opet Petrolcülük A.Ş.",
        "addr_street": "Ankara Caddesi",
        "addr_district": "Pendik",
        "opening_hours": ""
      }
    },
    {
      "type": "Feature",
      "geometry": {
        "type": "Point",
        "coordinates": [
          28.652694,
          41.080441
        ]
      },
      "properties": {
        "osm_id": 4699018051,
        "osm_type": "node",
        "name": "Opet Hoşdere Petrol",
        "brand": "Opet",
        "operator": "Opet Petrolcülük A.Ş.",
        "addr_street": "Hadımköy Altınşehir Yolu",
        "addr_district": "Esenyurt",
        "opening_hours": ""
      }
    },
    {
      "type": "Feature",
      "geometry": {
        "type": "Point",
        "coordinates": [
          28.806502,
          41.029215
        ]
      },
      "properties": {
        "osm_id": 4699018057,
        "osm_type": "node",
        "name": "Opet Küçükçekmece Halkalı",
        "brand": "Opet",
        "operator": "Opet Petrolcülük A.Ş.",
        "addr_street": "Fatih Caddesi",
        "addr_district": "Küçükçekmece",
        "opening_hours": ""
      }
    },
    {
      "type": "Feature",
      "geometry": {
        "type": "Point",
        "coordinates": [
          29.075282,
          41.011249
        ]
      },
      "properties": {
        "osm_id": 4699018077,
        "osm_type": "node",
        "name": "Petrol Ofisi",
        "brand": "Petrol Ofisi",
        "operator": "Petrol Ofisi",
        "addr_street": "Libadiye Caddesi",
        "addr_district": "Üsküdar",
        "opening_hours": ""
      }
    },
    {
      "type": "Feature",
      "geometry": {
        "type": "Point",
        "coordinates": [
          28.883948,
          40.987724
        ]
      },
      "properties": {
        "osm_id": 4699018204,
        "osm_type": "node",
        "name": "Opet Bakırköy",
        "brand": "Opet",
        "operator": "Opet Petrolcülük A.Ş.",
        "addr_street": "Aksu Caddesi",
        "addr_district": "Bakırköy",
        "opening_hours": ""
      }
    },
    {
      "type": "Feature",
      "geometry": {
        "type": "Point",
        "coordinates": [
          28.967225,
          41.041235
        ]
      },
      "properties": {
        "osm_id": 4699018205,
        "osm_type": "node",
        "name": "Opet Beyoğlu",
        "brand": "Opet",
        "operator": "Opet Petrolcülük A.Ş.",
        "addr_street": "Piyale Paşa Bulvarı",
        "addr_district": "Beyoğlu",
        "opening_hours": ""
      }
    },
    {
      "type": "Feature",
      "geometry": {
        "type": "Point",
        "coordinates": [
          29.343333,
          40.907668
        ]
      },
      "properties": {
        "osm_id": 4699018213,
        "osm_type": "node",
        "name": "Opet Tuzla",
        "brand": "Opet",
        "operator": "Opet Petrolcülük A.Ş.",
        "addr_street": "Fettah Başaran Caddesi",
        "addr_district": "Tuzla",
        "opening_hours": ""
      }
    },
    {
      "type": "Feature",
      "geometry": {
        "type": "Point",
        "coordinates": [
          28.827216,
          40.993085
        ]
      },
      "properties": {
        "osm_id": 4699018226,
        "osm_type": "node",
        "name": "Opet Bahçelievler Çobançeşme",
        "brand": "Opet",
        "operator": "Erhan Dedeoğlu Petrol",
        "addr_street": "Dumlupınar caddesi",
        "addr_district": "Bahçelievler",
        "opening_hours": ""
      }
    },
    {
      "type": "Feature",
      "geometry": {
        "type": "Point",
        "coordinates": [
          28.840575,
          41.054721
        ]
      },
      "properties": {
        "osm_id": 4699018227,
        "osm_type": "node",
        "name": "Opet Bağcılar",
        "brand": "Opet",
        "operator": "Opet Petrolcülük A.Ş.",
        "addr_street": "Maslak Caddesi",
        "addr_district": "Bağcılar",
        "opening_hours": ""
      }
    },
    {
      "type": "Feature",
      "geometry": {
        "type": "Point",
        "coordinates": [
          29.11592,
          41.022502
        ]
      },
      "properties": {
        "osm_id": 4699018229,
        "osm_type": "node",
        "name": "Opet Ümraniye",
        "brand": "Opet",
        "operator": "Opet Petrolcülük A.Ş.",
        "addr_street": "Alemdağ Caddesi",
        "addr_district": "Ümraniye",
        "opening_hours": "Mo-Su,PH 00:00-00:00"
      }
    },
    {
      "type": "Feature",
      "geometry": {
        "type": "Point",
        "coordinates": [
          28.730707,
          41.058215
        ]
      },
      "properties": {
        "osm_id": 4699018232,
        "osm_type": "node",
        "name": "Aytemiz",
        "brand": "Aytemiz",
        "operator": "",
        "addr_street": "Kuzey Yan Yolu",
        "addr_district": "Avcılar",
        "opening_hours": ""
      }
    },
    {
      "type": "Feature",
      "geometry": {
        "type": "Point",
        "coordinates": [
          28.686603,
          41.023118
        ]
      },
      "properties": {
        "osm_id": 4699018234,
        "osm_type": "node",
        "name": "Opet",
        "brand": "Opet",
        "operator": "Opet Petrolcülük A.Ş.",
        "addr_street": "Doğan Araslı Bulvarı",
        "addr_district": "Esenyurt",
        "opening_hours": ""
      }
    },
    {
      "type": "Feature",
      "geometry": {
        "type": "Point",
        "coordinates": [
          29.285377,
          40.905341
        ]
      },
      "properties": {
        "osm_id": 4699018235,
        "osm_type": "node",
        "name": "Shell",
        "brand": "Shell",
        "operator": "",
        "addr_street": "Ankara Caddesi",
        "addr_district": "Pendik",
        "opening_hours": "Mo-Su,PH 08:00+"
      }
    },
    {
      "type": "Feature",
      "geometry": {
        "type": "Point",
        "coordinates": [
          29.02304,
          41.00829
        ]
      },
      "properties": {
        "osm_id": 4699018244,
        "osm_type": "node",
        "name": "Petrol Ofisi",
        "brand": "Petrol Ofisi",
        "operator": "Opet Petrolcülük A.Ş.",
        "addr_street": "Tıbbiye Caddesi Atölyeler Sokak",
        "addr_district": "Üsküdar",
        "opening_hours": ""
      }
    },
    {
      "type": "Feature",
      "geometry": {
        "type": "Point",
        "coordinates": [
          29.232327,
          40.881089
        ]
      },
      "properties": {
        "osm_id": 4699018247,
        "osm_type": "node",
        "name": "Opet",
        "brand": "Opet",
        "operator": "",
        "addr_street": "Abdulhalik Renda Caddesi",
        "addr_district": "Pendik",
        "opening_hours": ""
      }
    },
    {
      "type": "Feature",
      "geometry": {
        "type": "Point",
        "coordinates": [
          29.17731,
          40.891269
        ]
      },
      "properties": {
        "osm_id": 4699018248,
        "osm_type": "node",
        "name": "Petrol Ofisi",
        "brand": "Petrol Ofisi",
        "operator": "",
        "addr_street": "Üsküdar Caddesi",
        "addr_district": "Kartal",
        "opening_hours": ""
      }
    },
    {
      "type": "Feature",
      "geometry": {
        "type": "Point",
        "coordinates": [
          28.605259,
          40.99775
        ]
      },
      "properties": {
        "osm_id": 4699018252,
        "osm_type": "node",
        "name": "Opet Beylikdüzü",
        "brand": "Opet",
        "operator": "Opet Petrolcülük A.Ş.",
        "addr_street": "Turgut Özal 1. Caddesi",
        "addr_district": "Büyükçekmece",
        "opening_hours": ""
      }
    },
    {
      "type": "Feature",
      "geometry": {
        "type": "Point",
        "coordinates": [
          28.876809,
          41.049077
        ]
      },
      "properties": {
        "osm_id": 4699018254,
        "osm_type": "node",
        "name": "Opet Esenler Fevzi Çakmak",
        "brand": "Opet",
        "operator": "Opet Petrolcülük A.Ş.",
        "addr_street": "Atışalanı Caddesi",
        "addr_district": "Esenler",
        "opening_hours": ""
      }
    },
    {
      "type": "Feature",
      "geometry": {
        "type": "Point",
        "coordinates": [
          28.859748,
          41.0477
        ]
      },
      "properties": {
        "osm_id": 4699018255,
        "osm_type": "node",
        "name": "Opet Bağcılar",
        "brand": "Opet",
        "operator": "Opet Petrolcülük A.Ş.",
        "addr_street": "Osmangazi Caddesi",
        "addr_district": "Bağcılar",
        "opening_hours": ""
      }
    },
    {
      "type": "Feature",
      "geometry": {
        "type": "Point",
        "coordinates": [
          28.668452,
          40.989872
        ]
      },
      "properties": {
        "osm_id": 4699018264,
        "osm_type": "node",
        "name": "Opet Beylikdüzü",
        "brand": "Opet",
        "operator": "Opet Petrolcülük A.Ş.",
        "addr_street": "Hürriyet Bulvarı",
        "addr_district": "Beylikdüzü",
        "opening_hours": ""
      }
    },
    {
      "type": "Feature",
      "geometry": {
        "type": "Point",
        "coordinates": [
          28.828365,
          41.011551
        ]
      },
      "properties": {
        "osm_id": 4699018265,
        "osm_type": "node",
        "name": "Opet Bahçelievler",
        "brand": "Opet",
        "operator": "Opet Petrolcülük A.Ş.",
        "addr_street": "Yıldırım Beyazıt Caddesi",
        "addr_district": "Bahçelievler",
        "opening_hours": ""
      }
    },
    {
      "type": "Feature",
      "geometry": {
        "type": "Point",
        "coordinates": [
          29.191968,
          40.912108
        ]
      },
      "properties": {
        "osm_id": 4699018282,
        "osm_type": "node",
        "name": "Opet Kartal",
        "brand": "Opet",
        "operator": "Opet Petrolcülük A.Ş.",
        "addr_street": "D-100 Yanyol Caddesi",
        "addr_district": "Kartal",
        "opening_hours": ""
      }
    },
    {
      "type": "Feature",
      "geometry": {
        "type": "Point",
        "coordinates": [
          28.667677,
          41.006514
        ]
      },
      "properties": {
        "osm_id": 4699018284,
        "osm_type": "node",
        "name": "Opet Esenyurt Güzelyurt",
        "brand": "Opet",
        "operator": "Opet Petrolcülük A.Ş.",
        "addr_street": "Haramidere Caddesi",
        "addr_district": "Esenyurt",
        "opening_hours": ""
      }
    },
    {
      "type": "Feature",
      "geometry": {
        "type": "Point",
        "coordinates": [
          28.826931,
          41.131936
        ]
      },
      "properties": {
        "osm_id": 4699018420,
        "osm_type": "node",
        "name": "Opet Sultangazi",
        "brand": "Opet",
        "operator": "Opet Petrolcülük A.Ş.",
        "addr_street": "Arnavutköy Habibler Yolu",
        "addr_district": "Sultangazi",
        "opening_hours": ""
      }
    },
    {
      "type": "Feature",
      "geometry": {
        "type": "Point",
        "coordinates": [
          29.252756,
          40.906774
        ]
      },
      "properties": {
        "osm_id": 4699018428,
        "osm_type": "node",
        "name": "Petrol Ofisi",
        "brand": "Petrol Ofisi",
        "operator": "Opet Petrolcülük A.Ş.",
        "addr_street": "Yakacık Caddesi",
        "addr_district": "Pendik",
        "opening_hours": ""
      }
    },
    {
      "type": "Feature",
      "geometry": {
        "type": "Point",
        "coordinates": [
          28.883817,
          41.032443
        ]
      },
      "properties": {
        "osm_id": 4699018475,
        "osm_type": "node",
        "name": "Mehmetçik Petrol",
        "brand": "",
        "operator": "",
        "addr_street": "Orgeneral Eşref Bitlis Caddesi",
        "addr_district": "Güngören",
        "opening_hours": ""
      }
    },
    {
      "type": "Feature",
      "geometry": {
        "type": "Point",
        "coordinates": [
          29.143871,
          40.942684
        ]
      },
      "properties": {
        "osm_id": 4699018488,
        "osm_type": "node",
        "name": "Opet Maltepe",
        "brand": "Opet",
        "operator": "Opet Petrolcülük A.Ş.",
        "addr_street": "Narlıdere Caddesi",
        "addr_district": "Maltepe",
        "opening_hours": ""
      }
    },
    {
      "type": "Feature",
      "geometry": {
        "type": "Point",
        "coordinates": [
          28.036584,
          41.083953
        ]
      },
      "properties": {
        "osm_id": 4699018911,
        "osm_type": "node",
        "name": "Opet Silivri",
        "brand": "Opet",
        "operator": "Opet Petrolcülük A.Ş.",
        "addr_street": "Edirne Asfaltı Aslanağzı Sokak",
        "addr_district": "Silivri",
        "opening_hours": ""
      }
    },
    {
      "type": "Feature",
      "geometry": {
        "type": "Point",
        "coordinates": [
          28.037897,
          41.249376
        ]
      },
      "properties": {
        "osm_id": 4699018931,
        "osm_type": "node",
        "name": "Opet Silivri Büyükçavuşlu Rüya Petrol",
        "brand": "Opet",
        "operator": "Opet Petrolcülük A.Ş.",
        "addr_street": "Çerkezköy Tem Bağlantı Yolu",
        "addr_district": "Silivri",
        "opening_hours": ""
      }
    },
    {
      "type": "Feature",
      "geometry": {
        "type": "Point",
        "coordinates": [
          28.78946,
          41.060352
        ]
      },
      "properties": {
        "osm_id": 4699018940,
        "osm_type": "node",
        "name": "Opet İkitelli",
        "brand": "Opet",
        "operator": "Opet Petrolcülük A.Ş.",
        "addr_street": "İkitelli Caddesi",
        "addr_district": "Küçükçekmece",
        "opening_hours": "24/7"
      }
    },
    {
      "type": "Feature",
      "geometry": {
        "type": "Point",
        "coordinates": [
          29.310702,
          41.109934
        ]
      },
      "properties": {
        "osm_id": 4699018970,
        "osm_type": "node",
        "name": "Opet Çekmeköy",
        "brand": "Opet",
        "operator": "Opet Petrolcülük A.Ş.",
        "addr_street": "Beykoz Caddesi",
        "addr_district": "Çekmeköy",
        "opening_hours": ""
      }
    },
    {
      "type": "Feature",
      "geometry": {
        "type": "Point",
        "coordinates": [
          28.841087,
          41.060137
        ]
      },
      "properties": {
        "osm_id": 4699019343,
        "osm_type": "node",
        "name": "Opet Bağcılar Göztepe",
        "brand": "Opet",
        "operator": "Opet Petrolcülük A.Ş.",
        "addr_street": "Oruç Sokak",
        "addr_district": "Bağcılar",
        "opening_hours": ""
      }
    },
    {
      "type": "Feature",
      "geometry": {
        "type": "Point",
        "coordinates": [
          28.984989,
          41.048424
        ]
      },
      "properties": {
        "osm_id": 4699019354,
        "osm_type": "node",
        "name": "Opet",
        "brand": "Opet",
        "operator": "Opet",
        "addr_street": "Dolapdere Caddesi",
        "addr_district": "Şişli",
        "opening_hours": ""
      }
    },
    {
      "type": "Feature",
      "geometry": {
        "type": "Point",
        "coordinates": [
          29.201664,
          41.007955
        ]
      },
      "properties": {
        "osm_id": 4699019360,
        "osm_type": "node",
        "name": "Opet Ümraniye",
        "brand": "Opet",
        "operator": "Opet Petrolcülük A.Ş.",
        "addr_street": "Atatürk Caddesi",
        "addr_district": "Sancaktepe",
        "opening_hours": ""
      }
    },
    {
      "type": "Feature",
      "geometry": {
        "type": "Point",
        "coordinates": [
          29.106104,
          40.982402
        ]
      },
      "properties": {
        "osm_id": 4699019379,
        "osm_type": "node",
        "name": "Opet Ataşehir",
        "brand": "Opet",
        "operator": "Opet Petrolcülük A.Ş.",
        "addr_street": "Merdivenköy Yolu Caddesi",
        "addr_district": "Ataşehir",
        "opening_hours": ""
      }
    },
    {
      "type": "Feature",
      "geometry": {
        "type": "Point",
        "coordinates": [
          28.597697,
          41.183317
        ]
      },
      "properties": {
        "osm_id": 4699019380,
        "osm_type": "node",
        "name": "Opet Arnavutköy",
        "brand": "Opet",
        "operator": "Opet Petrolcülük A.Ş.",
        "addr_street": "Hadımköy Caddesi",
        "addr_district": "Arnavutköy",
        "opening_hours": ""
      }
    },
    {
      "type": "Feature",
      "geometry": {
        "type": "Point",
        "coordinates": [
          29.247003,
          40.901595
        ]
      },
      "properties": {
        "osm_id": 4699019947,
        "osm_type": "node",
        "name": "Opet Pendik",
        "brand": "Opet",
        "operator": "Opet Petrolcülük A.Ş.",
        "addr_street": "Olimpiyat Caddesi",
        "addr_district": "Pendik",
        "opening_hours": ""
      }
    },
    {
      "type": "Feature",
      "geometry": {
        "type": "Point",
        "coordinates": [
          28.62848,
          41.05038
        ]
      },
      "properties": {
        "osm_id": 4699019952,
        "osm_type": "node",
        "name": "Opet Esenyurt",
        "brand": "Opet",
        "operator": "Opet Petrolcülük A.Ş.",
        "addr_street": "Hadımköy Yolu Caddesi",
        "addr_district": "Esenyurt",
        "opening_hours": ""
      }
    },
    {
      "type": "Feature",
      "geometry": {
        "type": "Point",
        "coordinates": [
          29.249057,
          40.895696
        ]
      },
      "properties": {
        "osm_id": 4699019968,
        "osm_type": "node",
        "name": "Opet",
        "brand": "Opet",
        "operator": "Opet Petrolcülük A.Ş.",
        "addr_street": "Ankara Caddesi",
        "addr_district": "Pendik",
        "opening_hours": ""
      }
    },
    {
      "type": "Feature",
      "geometry": {
        "type": "Point",
        "coordinates": [
          29.334807,
          40.866335
        ]
      },
      "properties": {
        "osm_id": 4699019969,
        "osm_type": "node",
        "name": "Opet Tuzla",
        "brand": "Opet",
        "operator": "Opet Petrolcülük A.Ş.",
        "addr_street": "Aydın Yolu Caddesi",
        "addr_district": "Tuzla",
        "opening_hours": ""
      }
    },
    {
      "type": "Feature",
      "geometry": {
        "type": "Point",
        "coordinates": [
          29.090877,
          41.094793
        ]
      },
      "properties": {
        "osm_id": 4699020193,
        "osm_type": "node",
        "name": "Opet Beykoz",
        "brand": "Opet",
        "operator": "Opet Petrolcülük A.Ş.",
        "addr_street": "Orhan Veli Kanık Caddesi 119. Sokak",
        "addr_district": "Beykoz",
        "opening_hours": ""
      }
    },
    {
      "type": "Feature",
      "geometry": {
        "type": "Point",
        "coordinates": [
          29.371641,
          40.871794
        ]
      },
      "properties": {
        "osm_id": 4699020197,
        "osm_type": "node",
        "name": "Opet Tuzla",
        "brand": "",
        "operator": "Opet Petrolcülük A.Ş.",
        "addr_street": "Kumpas Caddesi",
        "addr_district": "Tuzla",
        "opening_hours": ""
      }
    },
    {
      "type": "Feature",
      "geometry": {
        "type": "Point",
        "coordinates": [
          29.296061,
          40.837403
        ]
      },
      "properties": {
        "osm_id": 4699020285,
        "osm_type": "node",
        "name": "Opet Tuzla",
        "brand": "Opet",
        "operator": "Opet Petrolcülük A.Ş.",
        "addr_street": "Rauf Orbay Caddesi",
        "addr_district": "Tuzla",
        "opening_hours": ""
      }
    },
    {
      "type": "Feature",
      "geometry": {
        "type": "Point",
        "coordinates": [
          29.253129,
          40.968128
        ]
      },
      "properties": {
        "osm_id": 4699022949,
        "osm_type": "node",
        "name": "Opet Sultanbeyli",
        "brand": "Opet",
        "operator": "Opet Petrolcülük A.Ş.",
        "addr_street": "Fatih Bulvarı",
        "addr_district": "Sultanbeyli",
        "opening_hours": ""
      }
    },
    {
      "type": "Feature",
      "geometry": {
        "type": "Point",
        "coordinates": [
          29.211534,
          40.9104
        ]
      },
      "properties": {
        "osm_id": 4699022950,
        "osm_type": "node",
        "name": "Opet Kartal",
        "brand": "Opet",
        "operator": "Opet Petrolcülük A.Ş.",
        "addr_street": "Yalnız Selvi Caddesi",
        "addr_district": "Kartal",
        "opening_hours": ""
      }
    },
    {
      "type": "Feature",
      "geometry": {
        "type": "Point",
        "coordinates": [
          29.165959,
          40.98387
        ]
      },
      "properties": {
        "osm_id": 4699022951,
        "osm_type": "node",
        "name": "Opet Ümraniye",
        "brand": "Opet",
        "operator": "Opet Petrolcülük A.Ş.",
        "addr_street": "Üsküdar Caddesi",
        "addr_district": "Ataşehir",
        "opening_hours": ""
      }
    },
    {
      "type": "Feature",
      "geometry": {
        "type": "Point",
        "coordinates": [
          29.281546,
          40.859498
        ]
      },
      "properties": {
        "osm_id": 4699022952,
        "osm_type": "node",
        "name": "Opet Pendik",
        "brand": "Opet",
        "operator": "Opet Petrolcülük A.Ş.",
        "addr_street": "İbrahim Hakkı Caddesi",
        "addr_district": "Pendik",
        "opening_hours": ""
      }
    },
    {
      "type": "Feature",
      "geometry": {
        "type": "Point",
        "coordinates": [
          29.143805,
          40.987731
        ]
      },
      "properties": {
        "osm_id": 4699022953,
        "osm_type": "node",
        "name": "Opet Ataşehir",
        "brand": "Opet",
        "operator": "Opet Petrolcülük A.Ş.",
        "addr_street": "Dudullu Caddesi",
        "addr_district": "Ataşehir",
        "opening_hours": ""
      }
    },
    {
      "type": "Feature",
      "geometry": {
        "type": "Point",
        "coordinates": [
          28.812081,
          41.050131
        ]
      },
      "properties": {
        "osm_id": 4699022955,
        "osm_type": "node",
        "name": "Opet Bağcılar",
        "brand": "Opet",
        "operator": "Opet Petrolcülük A.Ş.",
        "addr_street": "Taşocağı Caddesi Tanyeli Sokak",
        "addr_district": "Bağcılar",
        "opening_hours": ""
      }
    },
    {
      "type": "Feature",
      "geometry": {
        "type": "Point",
        "coordinates": [
          28.908816,
          41.019717
        ]
      },
      "properties": {
        "osm_id": 4699022956,
        "osm_type": "node",
        "name": "Opet Topkapı",
        "brand": "Opet",
        "operator": "Opet Petrolcülük A.Ş.",
        "addr_street": "Davut Paşa Caddesi Serçe Kale Sokak",
        "addr_district": "Zeytinburnu",
        "opening_hours": ""
      }
    },
    {
      "type": "Feature",
      "geometry": {
        "type": "Point",
        "coordinates": [
          28.728262,
          41.205103
        ]
      },
      "properties": {
        "osm_id": 4699022960,
        "osm_type": "node",
        "name": "Opet Islah Petrol",
        "brand": "Opet",
        "operator": "Opet Petrolcülük A.Ş.",
        "addr_street": "Fatih Caddesi",
        "addr_district": "Arnavutköy",
        "opening_hours": ""
      }
    },
    {
      "type": "Feature",
      "geometry": {
        "type": "Point",
        "coordinates": [
          29.079681,
          41.031458
        ]
      },
      "properties": {
        "osm_id": 4699022962,
        "osm_type": "node",
        "name": "Opet",
        "brand": "Opet",
        "operator": "Opet Petrolcülük A.Ş.",
        "addr_street": "Bosna Bulvarı",
        "addr_district": "Üsküdar",
        "opening_hours": ""
      }
    },
    {
      "type": "Feature",
      "geometry": {
        "type": "Point",
        "coordinates": [
          28.67193,
          41.055419
        ]
      },
      "properties": {
        "osm_id": 4699022963,
        "osm_type": "node",
        "name": "Opet Esenkent",
        "brand": "Opet",
        "operator": "Opet Petrolcülük A.Ş.",
        "addr_street": "Cemal Paşa Caddesi",
        "addr_district": "Esenyurt",
        "opening_hours": ""
      }
    },
    {
      "type": "Feature",
      "geometry": {
        "type": "Point",
        "coordinates": [
          29.349287,
          40.883978
        ]
      },
      "properties": {
        "osm_id": 4699022965,
        "osm_type": "node",
        "name": "Opet Tuzla",
        "brand": "Opet",
        "operator": "Opet Petrolcülük A.Ş.",
        "addr_street": "Atatürk Caddesi",
        "addr_district": "Tuzla",
        "opening_hours": ""
      }
    },
    {
      "type": "Feature",
      "geometry": {
        "type": "Point",
        "coordinates": [
          29.31756,
          40.926686
        ]
      },
      "properties": {
        "osm_id": 4699022966,
        "osm_type": "node",
        "name": "Shell Sabiha Gökçen",
        "brand": "Shell",
        "operator": "Shell Türkiye",
        "addr_street": "Yeni Ankara Caddesi",
        "addr_district": "Pendik",
        "opening_hours": "24/7"
      }
    },
    {
      "type": "Feature",
      "geometry": {
        "type": "Point",
        "coordinates": [
          29.215906,
          41.008467
        ]
      },
      "properties": {
        "osm_id": 4699022970,
        "osm_type": "node",
        "name": "Opet Ümraniye",
        "brand": "Opet",
        "operator": "Opet Petrolcülük A.Ş.",
        "addr_street": "Atatürk Caddesi",
        "addr_district": "Sancaktepe",
        "opening_hours": ""
      }
    },
    {
      "type": "Feature",
      "geometry": {
        "type": "Point",
        "coordinates": [
          28.621961,
          41.064034
        ]
      },
      "properties": {
        "osm_id": 4699022971,
        "osm_type": "node",
        "name": "Opet Büyükçekmece",
        "brand": "Opet",
        "operator": "Opet Petrolcülük A.Ş.",
        "addr_street": "Hadımköy Yolu Caddesi",
        "addr_district": "Büyükçekmece",
        "opening_hours": ""
      }
    },
    {
      "type": "Feature",
      "geometry": {
        "type": "Point",
        "coordinates": [
          29.233194,
          40.891373
        ]
      },
      "properties": {
        "osm_id": 4699022975,
        "osm_type": "node",
        "name": "Opet Pendik",
        "brand": "Opet",
        "operator": "Opet Petrolcülük A.Ş.",
        "addr_street": "D-100 Güney Yanyolu",
        "addr_district": "Pendik",
        "opening_hours": ""
      }
    },
    {
      "type": "Feature",
      "geometry": {
        "type": "Point",
        "coordinates": [
          28.790782,
          41.028799
        ]
      },
      "properties": {
        "osm_id": 4699022981,
        "osm_type": "node",
        "name": "Shell",
        "brand": "Shell",
        "operator": "Shell & Turcas",
        "addr_street": "Halkalı Caddesi",
        "addr_district": "Küçükçekmece",
        "opening_hours": ""
      }
    },
    {
      "type": "Feature",
      "geometry": {
        "type": "Point",
        "coordinates": [
          29.244293,
          41.007237
        ]
      },
      "properties": {
        "osm_id": 4699023892,
        "osm_type": "node",
        "name": "Opet Sancaktepe",
        "brand": "Opet",
        "operator": "Opet Petrolcülük A.Ş.",
        "addr_street": "Mübacir Caddesi",
        "addr_district": "Sancaktepe",
        "opening_hours": ""
      }
    },
    {
      "type": "Feature",
      "geometry": {
        "type": "Point",
        "coordinates": [
          29.628344,
          41.156979
        ]
      },
      "properties": {
        "osm_id": 4699023902,
        "osm_type": "node",
        "name": "Opet Şile",
        "brand": "Opet",
        "operator": "Opet Petrolcülük A.Ş.",
        "addr_street": "Ağva Caddesi",
        "addr_district": "Şile",
        "opening_hours": ""
      }
    },
    {
      "type": "Feature",
      "geometry": {
        "type": "Point",
        "coordinates": [
          29.220607,
          40.9776
        ]
      },
      "properties": {
        "osm_id": 4699023905,
        "osm_type": "node",
        "name": "Opet Sancaktepe",
        "brand": "Opet",
        "operator": "Opet Petrolcülük A.Ş.",
        "addr_street": "Yakacık Caddesi",
        "addr_district": "Sancaktepe",
        "opening_hours": ""
      }
    },
    {
      "type": "Feature",
      "geometry": {
        "type": "Point",
        "coordinates": [
          29.263793,
          40.990082
        ]
      },
      "properties": {
        "osm_id": 4699023914,
        "osm_type": "node",
        "name": "Opet Sultanbeyli",
        "brand": "Opet",
        "operator": "Opet Petrolcülük A.Ş.",
        "addr_street": "Mimar Sinan Caddesi",
        "addr_district": "Sultanbeyli",
        "opening_hours": ""
      }
    },
    {
      "type": "Feature",
      "geometry": {
        "type": "Point",
        "coordinates": [
          28.646292,
          41.017935
        ]
      },
      "properties": {
        "osm_id": 4699023919,
        "osm_type": "node",
        "name": "Opet Esenyurt",
        "brand": "Opet",
        "operator": "Opet Petrolcülük A.Ş.",
        "addr_street": "Nazım Hikmet Bulvarı",
        "addr_district": "Esenyurt",
        "opening_hours": ""
      }
    },
    {
      "type": "Feature",
      "geometry": {
        "type": "Point",
        "coordinates": [
          28.445779,
          41.035381
        ]
      },
      "properties": {
        "osm_id": 4699023920,
        "osm_type": "node",
        "name": "Opet Büyükçekmece Kamiloba",
        "brand": "Opet",
        "operator": "Opet Petrolcülük A.Ş.",
        "addr_street": "E-5 Karayolu",
        "addr_district": "Büyükçekmece",
        "opening_hours": ""
      }
    },
    {
      "type": "Feature",
      "geometry": {
        "type": "Point",
        "coordinates": [
          29.241896,
          40.886559
        ]
      },
      "properties": {
        "osm_id": 4699023925,
        "osm_type": "node",
        "name": "Opet",
        "brand": "Opet",
        "operator": "Opet Petrolcülük A.Ş.",
        "addr_street": "E-5 Yanyol Caddesi Latife Hanım Sokak",
        "addr_district": "Pendik",
        "opening_hours": ""
      }
    },
    {
      "type": "Feature",
      "geometry": {
        "type": "Point",
        "coordinates": [
          29.012243,
          41.009864
        ]
      },
      "properties": {
        "osm_id": 4699023930,
        "osm_type": "node",
        "name": "Opet Üsküdar",
        "brand": "Opet",
        "operator": "Opet Petrolcülük A.Ş.",
        "addr_street": "Harem Sahil Yolu",
        "addr_district": "Üsküdar",
        "opening_hours": ""
      }
    },
    {
      "type": "Feature",
      "geometry": {
        "type": "Point",
        "coordinates": [
          29.286563,
          40.885945
        ]
      },
      "properties": {
        "osm_id": 4699023934,
        "osm_type": "node",
        "name": "Opet Pendik",
        "brand": "Opet",
        "operator": "Opet Petrolcülük A.Ş.",
        "addr_street": "Abdi İpekçi Caddesi",
        "addr_district": "Pendik",
        "opening_hours": ""
      }
    },
    {
      "type": "Feature",
      "geometry": {
        "type": "Point",
        "coordinates": [
          28.857421,
          41.027511
        ]
      },
      "properties": {
        "osm_id": 4699023938,
        "osm_type": "node",
        "name": "Opet Bağcılar",
        "brand": "Opet",
        "operator": "Opet Petrolcülük A.Ş.",
        "addr_street": "Bağcılar Caddesi",
        "addr_district": "Bağcılar",
        "opening_hours": ""
      }
    },
    {
      "type": "Feature",
      "geometry": {
        "type": "Point",
        "coordinates": [
          29.151085,
          40.924093
        ]
      },
      "properties": {
        "osm_id": 4718176989,
        "osm_type": "node",
        "name": "Petrol Ofisi - Bulut Petrol",
        "brand": "Petrol Ofisi",
        "operator": "",
        "addr_street": "",
        "addr_district": "",
        "opening_hours": ""
      }
    },
    {
      "type": "Feature",
      "geometry": {
        "type": "Point",
        "coordinates": [
          29.138014,
          40.937724
        ]
      },
      "properties": {
        "osm_id": 4718388547,
        "osm_type": "node",
        "name": "Opet",
        "brand": "Opet",
        "operator": "",
        "addr_street": "",
        "addr_district": "",
        "opening_hours": ""
      }
    },
    {
      "type": "Feature",
      "geometry": {
        "type": "Point",
        "coordinates": [
          29.136172,
          40.93888
        ]
      },
      "properties": {
        "osm_id": 4718388548,
        "osm_type": "node",
        "name": "Shell",
        "brand": "Shell",
        "operator": "",
        "addr_street": "",
        "addr_district": "",
        "opening_hours": ""
      }
    },
    {
      "type": "Feature",
      "geometry": {
        "type": "Point",
        "coordinates": [
          29.133219,
          40.939768
        ]
      },
      "properties": {
        "osm_id": 4718388549,
        "osm_type": "node",
        "name": "Total",
        "brand": "TotalEnergies",
        "operator": "",
        "addr_street": "",
        "addr_district": "",
        "opening_hours": ""
      }
    },
    {
      "type": "Feature",
      "geometry": {
        "type": "Point",
        "coordinates": [
          29.147607,
          40.920249
        ]
      },
      "properties": {
        "osm_id": 4718485057,
        "osm_type": "node",
        "name": "",
        "brand": "",
        "operator": "",
        "addr_street": "",
        "addr_district": "",
        "opening_hours": ""
      }
    },
    {
      "type": "Feature",
      "geometry": {
        "type": "Point",
        "coordinates": [
          29.19532,
          40.911144
        ]
      },
      "properties": {
        "osm_id": 4718488092,
        "osm_type": "node",
        "name": "Shell",
        "brand": "Shell",
        "operator": "",
        "addr_street": "",
        "addr_district": "",
        "opening_hours": ""
      }
    },
    {
      "type": "Feature",
      "geometry": {
        "type": "Point",
        "coordinates": [
          29.202717,
          40.908907
        ]
      },
      "properties": {
        "osm_id": 4718488093,
        "osm_type": "node",
        "name": "",
        "brand": "",
        "operator": "",
        "addr_street": "",
        "addr_district": "",
        "opening_hours": ""
      }
    },
    {
      "type": "Feature",
      "geometry": {
        "type": "Point",
        "coordinates": [
          29.217484,
          40.902499
        ]
      },
      "properties": {
        "osm_id": 4718488098,
        "osm_type": "node",
        "name": "Shell",
        "brand": "Shell",
        "operator": "",
        "addr_street": "",
        "addr_district": "",
        "opening_hours": ""
      }
    },
    {
      "type": "Feature",
      "geometry": {
        "type": "Point",
        "coordinates": [
          29.228492,
          40.894322
        ]
      },
      "properties": {
        "osm_id": 4718488104,
        "osm_type": "node",
        "name": "Total",
        "brand": "TotalEnergies",
        "operator": "",
        "addr_street": "",
        "addr_district": "",
        "opening_hours": ""
      }
    },
    {
      "type": "Feature",
      "geometry": {
        "type": "Point",
        "coordinates": [
          29.278693,
          40.904372
        ]
      },
      "properties": {
        "osm_id": 4718712547,
        "osm_type": "node",
        "name": "Opet",
        "brand": "Opet",
        "operator": "",
        "addr_street": "",
        "addr_district": "",
        "opening_hours": ""
      }
    },
    {
      "type": "Feature",
      "geometry": {
        "type": "Point",
        "coordinates": [
          29.293373,
          40.907962
        ]
      },
      "properties": {
        "osm_id": 4718712560,
        "osm_type": "node",
        "name": "Total",
        "brand": "TotalEnergies",
        "operator": "",
        "addr_street": "",
        "addr_district": "",
        "opening_hours": ""
      }
    },
    {
      "type": "Feature",
      "geometry": {
        "type": "Point",
        "coordinates": [
          29.303618,
          40.914902
        ]
      },
      "properties": {
        "osm_id": 4718712575,
        "osm_type": "node",
        "name": "Petrol Ofisi",
        "brand": "Petrol Ofisi",
        "operator": "",
        "addr_street": "",
        "addr_district": "",
        "opening_hours": ""
      }
    },
    {
      "type": "Feature",
      "geometry": {
        "type": "Point",
        "coordinates": [
          28.47031,
          41.132793
        ]
      },
      "properties": {
        "osm_id": 4719094364,
        "osm_type": "node",
        "name": "",
        "brand": "",
        "operator": "",
        "addr_street": "",
        "addr_district": "",
        "opening_hours": ""
      }
    },
    {
      "type": "Feature",
      "geometry": {
        "type": "Point",
        "coordinates": [
          29.198869,
          40.89405
        ]
      },
      "properties": {
        "osm_id": 4720232022,
        "osm_type": "node",
        "name": "Shell",
        "brand": "Shell",
        "operator": "",
        "addr_street": "",
        "addr_district": "",
        "opening_hours": ""
      }
    },
    {
      "type": "Feature",
      "geometry": {
        "type": "Point",
        "coordinates": [
          29.291278,
          40.856096
        ]
      },
      "properties": {
        "osm_id": 4720232036,
        "osm_type": "node",
        "name": "",
        "brand": "",
        "operator": "",
        "addr_street": "",
        "addr_district": "",
        "opening_hours": ""
      }
    },
    {
      "type": "Feature",
      "geometry": {
        "type": "Point",
        "coordinates": [
          29.351989,
          40.824074
        ]
      },
      "properties": {
        "osm_id": 4720232050,
        "osm_type": "node",
        "name": "",
        "brand": "",
        "operator": "",
        "addr_street": "",
        "addr_district": "",
        "opening_hours": ""
      }
    },
    {
      "type": "Feature",
      "geometry": {
        "type": "Point",
        "coordinates": [
          29.362553,
          40.817186
        ]
      },
      "properties": {
        "osm_id": 4720232051,
        "osm_type": "node",
        "name": "",
        "brand": "",
        "operator": "",
        "addr_street": "",
        "addr_district": "",
        "opening_hours": ""
      }
    },
    {
      "type": "Feature",
      "geometry": {
        "type": "Point",
        "coordinates": [
          29.23972,
          41.052155
        ]
      },
      "properties": {
        "osm_id": 4724575294,
        "osm_type": "node",
        "name": "TotalEnergies",
        "brand": "TotalEnergies",
        "operator": "Baltacıoğlu Petrol",
        "addr_street": "",
        "addr_district": "",
        "opening_hours": ""
      }
    },
    {
      "type": "Feature",
      "geometry": {
        "type": "Point",
        "coordinates": [
          29.002254,
          41.065713
        ]
      },
      "properties": {
        "osm_id": 4730251788,
        "osm_type": "node",
        "name": "Shell",
        "brand": "Shell",
        "operator": "",
        "addr_street": "",
        "addr_district": "",
        "opening_hours": "24/7"
      }
    },
    {
      "type": "Feature",
      "geometry": {
        "type": "Point",
        "coordinates": [
          28.455149,
          41.223032
        ]
      },
      "properties": {
        "osm_id": 4771613236,
        "osm_type": "node",
        "name": "Opet",
        "brand": "Opet",
        "operator": "Opet",
        "addr_street": "",
        "addr_district": "",
        "opening_hours": ""
      }
    },
    {
      "type": "Feature",
      "geometry": {
        "type": "Point",
        "coordinates": [
          29.315606,
          40.926485
        ]
      },
      "properties": {
        "osm_id": 4779866887,
        "osm_type": "node",
        "name": "Opet",
        "brand": "Opet",
        "operator": "Opet",
        "addr_street": "",
        "addr_district": "",
        "opening_hours": "24/7"
      }
    },
    {
      "type": "Feature",
      "geometry": {
        "type": "Point",
        "coordinates": [
          29.272035,
          40.965013
        ]
      },
      "properties": {
        "osm_id": 4779867627,
        "osm_type": "node",
        "name": "",
        "brand": "",
        "operator": "",
        "addr_street": "",
        "addr_district": "",
        "opening_hours": ""
      }
    },
    {
      "type": "Feature",
      "geometry": {
        "type": "Point",
        "coordinates": [
          29.240681,
          40.974883
        ]
      },
      "properties": {
        "osm_id": 4779867647,
        "osm_type": "node",
        "name": "Petrol Ofisi",
        "brand": "Petrol Ofisi",
        "operator": "Petrol Ofisi",
        "addr_street": "Osmangazi",
        "addr_district": "Sancaktepe",
        "opening_hours": ""
      }
    },
    {
      "type": "Feature",
      "geometry": {
        "type": "Point",
        "coordinates": [
          29.268663,
          40.899134
        ]
      },
      "properties": {
        "osm_id": 4779890036,
        "osm_type": "node",
        "name": "Shell",
        "brand": "Shell",
        "operator": "",
        "addr_street": "",
        "addr_district": "",
        "opening_hours": ""
      }
    },
    {
      "type": "Feature",
      "geometry": {
        "type": "Point",
        "coordinates": [
          28.890874,
          40.981636
        ]
      },
      "properties": {
        "osm_id": 4807075794,
        "osm_type": "node",
        "name": "Aygaz",
        "brand": "Aygaz",
        "operator": "",
        "addr_street": "",
        "addr_district": "",
        "opening_hours": ""
      }
    },
    {
      "type": "Feature",
      "geometry": {
        "type": "Point",
        "coordinates": [
          29.140873,
          40.914478
        ]
      },
      "properties": {
        "osm_id": 4826423021,
        "osm_type": "node",
        "name": "",
        "brand": "",
        "operator": "",
        "addr_street": "",
        "addr_district": "",
        "opening_hours": ""
      }
    },
    {
      "type": "Feature",
      "geometry": {
        "type": "Point",
        "coordinates": [
          29.358626,
          40.90866
        ]
      },
      "properties": {
        "osm_id": 4835446168,
        "osm_type": "node",
        "name": "",
        "brand": "",
        "operator": "",
        "addr_street": "",
        "addr_district": "",
        "opening_hours": ""
      }
    },
    {
      "type": "Feature",
      "geometry": {
        "type": "Point",
        "coordinates": [
          29.188286,
          41.007153
        ]
      },
      "properties": {
        "osm_id": 4838961896,
        "osm_type": "node",
        "name": "Class",
        "brand": "",
        "operator": "",
        "addr_street": "",
        "addr_district": "",
        "opening_hours": ""
      }
    },
    {
      "type": "Feature",
      "geometry": {
        "type": "Point",
        "coordinates": [
          28.979646,
          41.041424
        ]
      },
      "properties": {
        "osm_id": 4845792383,
        "osm_type": "node",
        "name": "BP",
        "brand": "BP",
        "operator": "",
        "addr_street": "",
        "addr_district": "",
        "opening_hours": "24/7"
      }
    },
    {
      "type": "Feature",
      "geometry": {
        "type": "Point",
        "coordinates": [
          28.967337,
          41.040519
        ]
      },
      "properties": {
        "osm_id": 4845792420,
        "osm_type": "node",
        "name": "Shell",
        "brand": "Shell",
        "operator": "",
        "addr_street": "",
        "addr_district": "",
        "opening_hours": ""
      }
    },
    {
      "type": "Feature",
      "geometry": {
        "type": "Point",
        "coordinates": [
          28.966443,
          41.041658
        ]
      },
      "properties": {
        "osm_id": 4845792521,
        "osm_type": "node",
        "name": "Petro Ofisi",
        "brand": "",
        "operator": "",
        "addr_street": "",
        "addr_district": "",
        "opening_hours": ""
      }
    },
    {
      "type": "Feature",
      "geometry": {
        "type": "Point",
        "coordinates": [
          28.968038,
          41.038143
        ]
      },
      "properties": {
        "osm_id": 4845792522,
        "osm_type": "node",
        "name": "Shell",
        "brand": "Shell",
        "operator": "",
        "addr_street": "",
        "addr_district": "",
        "opening_hours": ""
      }
    },
    {
      "type": "Feature",
      "geometry": {
        "type": "Point",
        "coordinates": [
          28.973483,
          41.038455
        ]
      },
      "properties": {
        "osm_id": 4845792523,
        "osm_type": "node",
        "name": "",
        "brand": "",
        "operator": "",
        "addr_street": "",
        "addr_district": "",
        "opening_hours": ""
      }
    },
    {
      "type": "Feature",
      "geometry": {
        "type": "Point",
        "coordinates": [
          28.972648,
          41.038806
        ]
      },
      "properties": {
        "osm_id": 4845792524,
        "osm_type": "node",
        "name": "",
        "brand": "",
        "operator": "",
        "addr_street": "",
        "addr_district": "",
        "opening_hours": ""
      }
    },
    {
      "type": "Feature",
      "geometry": {
        "type": "Point",
        "coordinates": [
          28.977523,
          41.039812
        ]
      },
      "properties": {
        "osm_id": 4845792525,
        "osm_type": "node",
        "name": "Total Milangaz",
        "brand": "TotalEnergies",
        "operator": "",
        "addr_street": "",
        "addr_district": "",
        "opening_hours": "24/7"
      }
    },
    {
      "type": "Feature",
      "geometry": {
        "type": "Point",
        "coordinates": [
          28.817846,
          41.011805
        ]
      },
      "properties": {
        "osm_id": 4846902293,
        "osm_type": "node",
        "name": "Total",
        "brand": "TotalEnergies",
        "operator": "",
        "addr_street": "",
        "addr_district": "",
        "opening_hours": ""
      }
    },
    {
      "type": "Feature",
      "geometry": {
        "type": "Point",
        "coordinates": [
          28.824374,
          41.015437
        ]
      },
      "properties": {
        "osm_id": 4846902294,
        "osm_type": "node",
        "name": "",
        "brand": "",
        "operator": "",
        "addr_street": "",
        "addr_district": "",
        "opening_hours": ""
      }
    },
    {
      "type": "Feature",
      "geometry": {
        "type": "Point",
        "coordinates": [
          28.825907,
          41.013892
        ]
      },
      "properties": {
        "osm_id": 4846902295,
        "osm_type": "node",
        "name": "BP",
        "brand": "BP",
        "operator": "",
        "addr_street": "",
        "addr_district": "",
        "opening_hours": ""
      }
    },
    {
      "type": "Feature",
      "geometry": {
        "type": "Point",
        "coordinates": [
          28.851395,
          41.033412
        ]
      },
      "properties": {
        "osm_id": 4846902318,
        "osm_type": "node",
        "name": "",
        "brand": "",
        "operator": "",
        "addr_street": "",
        "addr_district": "",
        "opening_hours": ""
      }
    },
    {
      "type": "Feature",
      "geometry": {
        "type": "Point",
        "coordinates": [
          28.852891,
          41.036774
        ]
      },
      "properties": {
        "osm_id": 4846915123,
        "osm_type": "node",
        "name": "",
        "brand": "",
        "operator": "",
        "addr_street": "",
        "addr_district": "",
        "opening_hours": ""
      }
    },
    {
      "type": "Feature",
      "geometry": {
        "type": "Point",
        "coordinates": [
          28.851057,
          41.042079
        ]
      },
      "properties": {
        "osm_id": 4846915132,
        "osm_type": "node",
        "name": "",
        "brand": "",
        "operator": "",
        "addr_street": "",
        "addr_district": "",
        "opening_hours": ""
      }
    },
    {
      "type": "Feature",
      "geometry": {
        "type": "Point",
        "coordinates": [
          28.900625,
          41.01274
        ]
      },
      "properties": {
        "osm_id": 4846948582,
        "osm_type": "node",
        "name": "Opet",
        "brand": "Opet",
        "operator": "",
        "addr_street": "",
        "addr_district": "",
        "opening_hours": ""
      }
    },
    {
      "type": "Feature",
      "geometry": {
        "type": "Point",
        "coordinates": [
          28.709576,
          40.993617
        ]
      },
      "properties": {
        "osm_id": 4855516912,
        "osm_type": "node",
        "name": "Alpet",
        "brand": "Alpet",
        "operator": "",
        "addr_street": "",
        "addr_district": "",
        "opening_hours": ""
      }
    },
    {
      "type": "Feature",
      "geometry": {
        "type": "Point",
        "coordinates": [
          28.67682,
          41.019443
        ]
      },
      "properties": {
        "osm_id": 4855518349,
        "osm_type": "node",
        "name": "Shell",
        "brand": "Shell",
        "operator": "",
        "addr_street": "",
        "addr_district": "",
        "opening_hours": ""
      }
    },
    {
      "type": "Feature",
      "geometry": {
        "type": "Point",
        "coordinates": [
          28.875901,
          41.054845
        ]
      },
      "properties": {
        "osm_id": 4901564418,
        "osm_type": "node",
        "name": "Shell",
        "brand": "Shell",
        "operator": "",
        "addr_street": "",
        "addr_district": "",
        "opening_hours": ""
      }
    },
    {
      "type": "Feature",
      "geometry": {
        "type": "Point",
        "coordinates": [
          28.787478,
          41.002535
        ]
      },
      "properties": {
        "osm_id": 4908865216,
        "osm_type": "node",
        "name": "Opet",
        "brand": "Opet",
        "operator": "",
        "addr_street": "Sultan Murat Caddesi",
        "addr_district": "Küçükçekmece",
        "opening_hours": ""
      }
    },
    {
      "type": "Feature",
      "geometry": {
        "type": "Point",
        "coordinates": [
          28.833311,
          41.034557
        ]
      },
      "properties": {
        "osm_id": 4908865534,
        "osm_type": "node",
        "name": "Petrol Ofisi",
        "brand": "Petrol Ofisi",
        "operator": "",
        "addr_street": "Mahmutbey Caddesi",
        "addr_district": "Bağcılar",
        "opening_hours": ""
      }
    },
    {
      "type": "Feature",
      "geometry": {
        "type": "Point",
        "coordinates": [
          28.833644,
          41.039905
        ]
      },
      "properties": {
        "osm_id": 4908865535,
        "osm_type": "node",
        "name": "",
        "brand": "",
        "operator": "",
        "addr_street": "",
        "addr_district": "",
        "opening_hours": ""
      }
    },
    {
      "type": "Feature",
      "geometry": {
        "type": "Point",
        "coordinates": [
          28.829889,
          41.045908
        ]
      },
      "properties": {
        "osm_id": 4908865540,
        "osm_type": "node",
        "name": "",
        "brand": "",
        "operator": "",
        "addr_street": "",
        "addr_district": "",
        "opening_hours": ""
      }
    },
    {
      "type": "Feature",
      "geometry": {
        "type": "Point",
        "coordinates": [
          28.830478,
          41.056765
        ]
      },
      "properties": {
        "osm_id": 4908865541,
        "osm_type": "node",
        "name": "BP",
        "brand": "BP",
        "operator": "",
        "addr_street": "",
        "addr_district": "",
        "opening_hours": ""
      }
    },
    {
      "type": "Feature",
      "geometry": {
        "type": "Point",
        "coordinates": [
          28.830917,
          41.058061
        ]
      },
      "properties": {
        "osm_id": 4908865542,
        "osm_type": "node",
        "name": "Kadoil",
        "brand": "Kadoil",
        "operator": "",
        "addr_street": "",
        "addr_district": "",
        "opening_hours": ""
      }
    },
    {
      "type": "Feature",
      "geometry": {
        "type": "Point",
        "coordinates": [
          28.831104,
          41.058836
        ]
      },
      "properties": {
        "osm_id": 4908865547,
        "osm_type": "node",
        "name": "Opet",
        "brand": "Opet",
        "operator": "",
        "addr_street": "",
        "addr_district": "",
        "opening_hours": ""
      }
    },
    {
      "type": "Feature",
      "geometry": {
        "type": "Point",
        "coordinates": [
          28.831407,
          41.059952
        ]
      },
      "properties": {
        "osm_id": 4908865548,
        "osm_type": "node",
        "name": "Shell",
        "brand": "Shell",
        "operator": "",
        "addr_street": "",
        "addr_district": "",
        "opening_hours": ""
      }
    },
    {
      "type": "Feature",
      "geometry": {
        "type": "Point",
        "coordinates": [
          28.832117,
          41.059977
        ]
      },
      "properties": {
        "osm_id": 4908865549,
        "osm_type": "node",
        "name": "Aytemiz",
        "brand": "Aytemiz",
        "operator": "",
        "addr_street": "",
        "addr_district": "",
        "opening_hours": ""
      }
    },
    {
      "type": "Feature",
      "geometry": {
        "type": "Point",
        "coordinates": [
          28.895052,
          40.995093
        ]
      },
      "properties": {
        "osm_id": 4908893564,
        "osm_type": "node",
        "name": "BP",
        "brand": "BP",
        "operator": "",
        "addr_street": "Prof. Dr.turan Güneş Caddesi",
        "addr_district": "Zeytinburnu",
        "opening_hours": ""
      }
    },
    {
      "type": "Feature",
      "geometry": {
        "type": "Point",
        "coordinates": [
          28.73927,
          41.185935
        ]
      },
      "properties": {
        "osm_id": 4924075282,
        "osm_type": "node",
        "name": "",
        "brand": "",
        "operator": "",
        "addr_street": "",
        "addr_district": "",
        "opening_hours": ""
      }
    },
    {
      "type": "Feature",
      "geometry": {
        "type": "Point",
        "coordinates": [
          28.811001,
          41.067911
        ]
      },
      "properties": {
        "osm_id": 4926375965,
        "osm_type": "node",
        "name": "Petrol Ofisi",
        "brand": "Petrol Ofisi",
        "operator": "",
        "addr_street": "",
        "addr_district": "",
        "opening_hours": ""
      }
    },
    {
      "type": "Feature",
      "geometry": {
        "type": "Point",
        "coordinates": [
          29.00126,
          41.06125
        ]
      },
      "properties": {
        "osm_id": 4952623932,
        "osm_type": "node",
        "name": "Petrol Ofisi",
        "brand": "Petrol Ofisi",
        "operator": "",
        "addr_street": "",
        "addr_district": "",
        "opening_hours": ""
      }
    },
    {
      "type": "Feature",
      "geometry": {
        "type": "Point",
        "coordinates": [
          28.856881,
          41.027129
        ]
      },
      "properties": {
        "osm_id": 4956703288,
        "osm_type": "node",
        "name": "",
        "brand": "",
        "operator": "",
        "addr_street": "",
        "addr_district": "",
        "opening_hours": ""
      }
    },
    {
      "type": "Feature",
      "geometry": {
        "type": "Point",
        "coordinates": [
          28.951107,
          41.056912
        ]
      },
      "properties": {
        "osm_id": 4963093911,
        "osm_type": "node",
        "name": "Türkiye Petrolleri",
        "brand": "Türkiye Petrolleri",
        "operator": "",
        "addr_street": "İmrahor Caddesi",
        "addr_district": "",
        "opening_hours": ""
      }
    },
    {
      "type": "Feature",
      "geometry": {
        "type": "Point",
        "coordinates": [
          28.978142,
          41.085226
        ]
      },
      "properties": {
        "osm_id": 4963094240,
        "osm_type": "node",
        "name": "Petrol Ofisi",
        "brand": "Petrol Ofisi",
        "operator": "",
        "addr_street": "",
        "addr_district": "",
        "opening_hours": "24/7"
      }
    },
    {
      "type": "Feature",
      "geometry": {
        "type": "Point",
        "coordinates": [
          28.794425,
          41.009994
        ]
      },
      "properties": {
        "osm_id": 4965256366,
        "osm_type": "node",
        "name": "Petrol Ofisi",
        "brand": "Petrol Ofisi",
        "operator": "",
        "addr_street": "",
        "addr_district": "",
        "opening_hours": ""
      }
    },
    {
      "type": "Feature",
      "geometry": {
        "type": "Point",
        "coordinates": [
          28.795751,
          41.029371
        ]
      },
      "properties": {
        "osm_id": 4965256582,
        "osm_type": "node",
        "name": "",
        "brand": "",
        "operator": "",
        "addr_street": "",
        "addr_district": "",
        "opening_hours": ""
      }
    },
    {
      "type": "Feature",
      "geometry": {
        "type": "Point",
        "coordinates": [
          28.838062,
          40.991661
        ]
      },
      "properties": {
        "osm_id": 4978760118,
        "osm_type": "node",
        "name": "Petrol Ofisi",
        "brand": "Petrol Ofisi",
        "operator": "",
        "addr_street": "",
        "addr_district": "",
        "opening_hours": ""
      }
    },
    {
      "type": "Feature",
      "geometry": {
        "type": "Point",
        "coordinates": [
          28.785827,
          40.985344
        ]
      },
      "properties": {
        "osm_id": 4979178070,
        "osm_type": "node",
        "name": "Opet",
        "brand": "Opet",
        "operator": "",
        "addr_street": "",
        "addr_district": "",
        "opening_hours": ""
      }
    },
    {
      "type": "Feature",
      "geometry": {
        "type": "Point",
        "coordinates": [
          28.822991,
          41.031326
        ]
      },
      "properties": {
        "osm_id": 4986401524,
        "osm_type": "node",
        "name": "Total",
        "brand": "TotalEnergies",
        "operator": "",
        "addr_street": "Koçman Caddesi",
        "addr_district": "Bağcılar",
        "opening_hours": ""
      }
    },
    {
      "type": "Feature",
      "geometry": {
        "type": "Point",
        "coordinates": [
          28.680141,
          41.033828
        ]
      },
      "properties": {
        "osm_id": 4992027984,
        "osm_type": "node",
        "name": "",
        "brand": "",
        "operator": "",
        "addr_street": "",
        "addr_district": "",
        "opening_hours": ""
      }
    },
    {
      "type": "Feature",
      "geometry": {
        "type": "Point",
        "coordinates": [
          28.625175,
          41.059834
        ]
      },
      "properties": {
        "osm_id": 4992280808,
        "osm_type": "node",
        "name": "Aytemiz",
        "brand": "Aytemiz",
        "operator": "",
        "addr_street": "",
        "addr_district": "",
        "opening_hours": ""
      }
    },
    {
      "type": "Feature",
      "geometry": {
        "type": "Point",
        "coordinates": [
          28.625947,
          41.040829
        ]
      },
      "properties": {
        "osm_id": 4992280809,
        "osm_type": "node",
        "name": "",
        "brand": "",
        "operator": "",
        "addr_street": "",
        "addr_district": "",
        "opening_hours": ""
      }
    },
    {
      "type": "Feature",
      "geometry": {
        "type": "Point",
        "coordinates": [
          28.624714,
          41.037017
        ]
      },
      "properties": {
        "osm_id": 4992280814,
        "osm_type": "node",
        "name": "Shell",
        "brand": "Shell",
        "operator": "",
        "addr_street": "",
        "addr_district": "",
        "opening_hours": ""
      }
    },
    {
      "type": "Feature",
      "geometry": {
        "type": "Point",
        "coordinates": [
          28.626699,
          41.027052
        ]
      },
      "properties": {
        "osm_id": 4992280815,
        "osm_type": "node",
        "name": "",
        "brand": "",
        "operator": "",
        "addr_street": "",
        "addr_district": "",
        "opening_hours": ""
      }
    },
    {
      "type": "Feature",
      "geometry": {
        "type": "Point",
        "coordinates": [
          28.884215,
          40.988112
        ]
      },
      "properties": {
        "osm_id": 5008916861,
        "osm_type": "node",
        "name": "BP Veliefendi",
        "brand": "BP",
        "operator": "BP",
        "addr_street": "Koşuyolu Caddesi",
        "addr_district": "Bakırköy",
        "opening_hours": ""
      }
    },
    {
      "type": "Feature",
      "geometry": {
        "type": "Point",
        "coordinates": [
          29.39457,
          40.903528
        ]
      },
      "properties": {
        "osm_id": 5022546237,
        "osm_type": "node",
        "name": "",
        "brand": "",
        "operator": "",
        "addr_street": "",
        "addr_district": "",
        "opening_hours": ""
      }
    },
    {
      "type": "Feature",
      "geometry": {
        "type": "Point",
        "coordinates": [
          29.351164,
          40.899745
        ]
      },
      "properties": {
        "osm_id": 5022629078,
        "osm_type": "node",
        "name": "Aytepe petrol",
        "brand": "",
        "operator": "",
        "addr_street": "",
        "addr_district": "",
        "opening_hours": ""
      }
    },
    {
      "type": "Feature",
      "geometry": {
        "type": "Point",
        "coordinates": [
          29.259682,
          40.898628
        ]
      },
      "properties": {
        "osm_id": 5022629117,
        "osm_type": "node",
        "name": "Shell",
        "brand": "Shell",
        "operator": "",
        "addr_street": "",
        "addr_district": "",
        "opening_hours": ""
      }
    },
    {
      "type": "Feature",
      "geometry": {
        "type": "Point",
        "coordinates": [
          29.254141,
          40.897559
        ]
      },
      "properties": {
        "osm_id": 5022629118,
        "osm_type": "node",
        "name": "Türkiye Petrolleri",
        "brand": "Türkiye Petrolleri",
        "operator": "",
        "addr_street": "",
        "addr_district": "",
        "opening_hours": ""
      }
    },
    {
      "type": "Feature",
      "geometry": {
        "type": "Point",
        "coordinates": [
          29.236038,
          40.890388
        ]
      },
      "properties": {
        "osm_id": 5022629333,
        "osm_type": "node",
        "name": "TotalEnergies",
        "brand": "TotalEnergies",
        "operator": "",
        "addr_street": "Gönenli Mehmet Efendi Caddesi",
        "addr_district": "Pendik",
        "opening_hours": ""
      }
    },
    {
      "type": "Feature",
      "geometry": {
        "type": "Point",
        "coordinates": [
          29.222656,
          40.896725
        ]
      },
      "properties": {
        "osm_id": 5022636557,
        "osm_type": "node",
        "name": "",
        "brand": "",
        "operator": "",
        "addr_street": "",
        "addr_district": "",
        "opening_hours": ""
      }
    },
    {
      "type": "Feature",
      "geometry": {
        "type": "Point",
        "coordinates": [
          29.151546,
          40.913479
        ]
      },
      "properties": {
        "osm_id": 5022636564,
        "osm_type": "node",
        "name": "",
        "brand": "",
        "operator": "",
        "addr_street": "",
        "addr_district": "",
        "opening_hours": ""
      }
    },
    {
      "type": "Feature",
      "geometry": {
        "type": "Point",
        "coordinates": [
          29.146645,
          40.916472
        ]
      },
      "properties": {
        "osm_id": 5022636573,
        "osm_type": "node",
        "name": "",
        "brand": "",
        "operator": "",
        "addr_street": "",
        "addr_district": "",
        "opening_hours": ""
      }
    },
    {
      "type": "Feature",
      "geometry": {
        "type": "Point",
        "coordinates": [
          29.254304,
          40.87519
        ]
      },
      "properties": {
        "osm_id": 5022817283,
        "osm_type": "node",
        "name": "Shell",
        "brand": "Shell",
        "operator": "",
        "addr_street": "Aydınlı Yolu Caddesi",
        "addr_district": "Pendik",
        "opening_hours": ""
      }
    },
    {
      "type": "Feature",
      "geometry": {
        "type": "Point",
        "coordinates": [
          29.279197,
          41.043771
        ]
      },
      "properties": {
        "osm_id": 5031730251,
        "osm_type": "node",
        "name": "Petrol Ofisi",
        "brand": "Petrol Ofisi",
        "operator": "",
        "addr_street": "",
        "addr_district": "",
        "opening_hours": ""
      }
    },
    {
      "type": "Feature",
      "geometry": {
        "type": "Point",
        "coordinates": [
          28.787459,
          41.013361
        ]
      },
      "properties": {
        "osm_id": 5038130206,
        "osm_type": "node",
        "name": "",
        "brand": "",
        "operator": "",
        "addr_street": "",
        "addr_district": "",
        "opening_hours": ""
      }
    },
    {
      "type": "Feature",
      "geometry": {
        "type": "Point",
        "coordinates": [
          28.833203,
          40.992005
        ]
      },
      "properties": {
        "osm_id": 5038131041,
        "osm_type": "node",
        "name": "Shell",
        "brand": "Shell",
        "operator": "",
        "addr_street": "",
        "addr_district": "",
        "opening_hours": ""
      }
    },
    {
      "type": "Feature",
      "geometry": {
        "type": "Point",
        "coordinates": [
          28.80021,
          41.032119
        ]
      },
      "properties": {
        "osm_id": 5042266233,
        "osm_type": "node",
        "name": "Total",
        "brand": "TotalEnergies",
        "operator": "",
        "addr_street": "",
        "addr_district": "",
        "opening_hours": ""
      }
    },
    {
      "type": "Feature",
      "geometry": {
        "type": "Point",
        "coordinates": [
          28.687594,
          41.021648
        ]
      },
      "properties": {
        "osm_id": 5048210016,
        "osm_type": "node",
        "name": "Aytemiz Esenyurt Tabela",
        "brand": "Aytemiz",
        "operator": "",
        "addr_street": "",
        "addr_district": "",
        "opening_hours": ""
      }
    },
    {
      "type": "Feature",
      "geometry": {
        "type": "Point",
        "coordinates": [
          28.695405,
          41.013432
        ]
      },
      "properties": {
        "osm_id": 5048210226,
        "osm_type": "node",
        "name": "",
        "brand": "",
        "operator": "",
        "addr_street": "",
        "addr_district": "",
        "opening_hours": ""
      }
    },
    {
      "type": "Feature",
      "geometry": {
        "type": "Point",
        "coordinates": [
          29.151039,
          40.923423
        ]
      },
      "properties": {
        "osm_id": 5050081268,
        "osm_type": "node",
        "name": "Shell",
        "brand": "Shell",
        "operator": "",
        "addr_street": "",
        "addr_district": "",
        "opening_hours": ""
      }
    },
    {
      "type": "Feature",
      "geometry": {
        "type": "Point",
        "coordinates": [
          29.162722,
          40.950438
        ]
      },
      "properties": {
        "osm_id": 5052683541,
        "osm_type": "node",
        "name": "Petrol Ofisi",
        "brand": "Petrol Ofisi",
        "operator": "",
        "addr_street": "",
        "addr_district": "",
        "opening_hours": ""
      }
    },
    {
      "type": "Feature",
      "geometry": {
        "type": "Point",
        "coordinates": [
          29.215625,
          40.966764
        ]
      },
      "properties": {
        "osm_id": 5052765899,
        "osm_type": "node",
        "name": "",
        "brand": "",
        "operator": "",
        "addr_street": "",
        "addr_district": "",
        "opening_hours": ""
      }
    },
    {
      "type": "Feature",
      "geometry": {
        "type": "Point",
        "coordinates": [
          29.216493,
          40.966432
        ]
      },
      "properties": {
        "osm_id": 5052765904,
        "osm_type": "node",
        "name": "",
        "brand": "",
        "operator": "",
        "addr_street": "",
        "addr_district": "",
        "opening_hours": ""
      }
    },
    {
      "type": "Feature",
      "geometry": {
        "type": "Point",
        "coordinates": [
          29.22016,
          40.96956
        ]
      },
      "properties": {
        "osm_id": 5052766527,
        "osm_type": "node",
        "name": "",
        "brand": "",
        "operator": "",
        "addr_street": "",
        "addr_district": "",
        "opening_hours": ""
      }
    },
    {
      "type": "Feature",
      "geometry": {
        "type": "Point",
        "coordinates": [
          29.220274,
          40.980603
        ]
      },
      "properties": {
        "osm_id": 5052766554,
        "osm_type": "node",
        "name": "",
        "brand": "",
        "operator": "",
        "addr_street": "",
        "addr_district": "",
        "opening_hours": ""
      }
    },
    {
      "type": "Feature",
      "geometry": {
        "type": "Point",
        "coordinates": [
          29.226105,
          40.986969
        ]
      },
      "properties": {
        "osm_id": 5052766565,
        "osm_type": "node",
        "name": "Opet",
        "brand": "Opet",
        "operator": "",
        "addr_street": "",
        "addr_district": "",
        "opening_hours": ""
      }
    },
    {
      "type": "Feature",
      "geometry": {
        "type": "Point",
        "coordinates": [
          29.223123,
          40.992702
        ]
      },
      "properties": {
        "osm_id": 5052833560,
        "osm_type": "node",
        "name": "",
        "brand": "",
        "operator": "",
        "addr_street": "",
        "addr_district": "",
        "opening_hours": ""
      }
    },
    {
      "type": "Feature",
      "geometry": {
        "type": "Point",
        "coordinates": [
          29.216885,
          41.003895
        ]
      },
      "properties": {
        "osm_id": 5053328286,
        "osm_type": "node",
        "name": "",
        "brand": "",
        "operator": "",
        "addr_street": "",
        "addr_district": "",
        "opening_hours": ""
      }
    },
    {
      "type": "Feature",
      "geometry": {
        "type": "Point",
        "coordinates": [
          29.210874,
          41.009731
        ]
      },
      "properties": {
        "osm_id": 5053408890,
        "osm_type": "node",
        "name": "BP",
        "brand": "BP",
        "operator": "",
        "addr_street": "",
        "addr_district": "",
        "opening_hours": ""
      }
    },
    {
      "type": "Feature",
      "geometry": {
        "type": "Point",
        "coordinates": [
          29.210395,
          41.010363
        ]
      },
      "properties": {
        "osm_id": 5053408891,
        "osm_type": "node",
        "name": "Petrol Ofisi",
        "brand": "Petrol Ofisi",
        "operator": "",
        "addr_street": "",
        "addr_district": "",
        "opening_hours": ""
      }
    },
    {
      "type": "Feature",
      "geometry": {
        "type": "Point",
        "coordinates": [
          29.207388,
          41.01255
        ]
      },
      "properties": {
        "osm_id": 5053408898,
        "osm_type": "node",
        "name": "",
        "brand": "",
        "operator": "",
        "addr_street": "",
        "addr_district": "",
        "opening_hours": ""
      }
    },
    {
      "type": "Feature",
      "geometry": {
        "type": "Point",
        "coordinates": [
          29.191211,
          41.013615
        ]
      },
      "properties": {
        "osm_id": 5053409386,
        "osm_type": "node",
        "name": "",
        "brand": "",
        "operator": "",
        "addr_street": "",
        "addr_district": "",
        "opening_hours": ""
      }
    },
    {
      "type": "Feature",
      "geometry": {
        "type": "Point",
        "coordinates": [
          29.17772,
          41.016564
        ]
      },